gauge_id,q_mean,runoff_ratio,slope_fdc,baseflow_index,stream_elas,q5,q95,high_q_freq,high_q_dur,low_q_freq,low_q_dur,zero_q_freq,hfd_mean,STANAME,CLASS,AGGECOREGI,DRAIN_SQKM,HUC02,LAT_GAGE,LNG_GAGE,STATE,HCDN_2009,ACTIVE09,FLYRS1900,FLYRS1950,FLYRS1990,OBJECTID,Join_Count,TARGET_FID,AREA,PERIMETER,PHYSIODD_,PHYSIODD_I,FCODE,FENCODE,DIVISION,PROVINCE,SECTION,PROVCODE,geometry
01350000,2.10751838898456,0.544607098819415,1.63109206304951,0.454634129444089,1.56426437459043,0.0918699083241456,7.18981891232444,11.35,1.89166666666667,95.65,16.2118644067797,0,160.2,SCHOHARIE CREEK AT PRATTSVILLE NY,Ref,NorthEast,612.5148,02,42.319528,-74.436537,NY,yes,yes,102,60,20,22,1,22,0.533,3.365,154,13,82,8b,APPALACHIAN HIGHLANDS,APPALACHIAN PLATEAUS,CATSKILL,8,"c(1750722.8199, 2346128.7399)"
01350080,1.53457849767968,0.439351612145991,1.9015959869947,0.492301447944427,1.33865966132431,0.0700355595099847,5.07174176784804,9.05,1.96739130434783,106.7,19.5779816513761,0,169.55,MANOR KILL AT WEST CONESVILLE NEAR GILBOA NY,Ref,NorthEast,83.8404,02,42.377026,-74.412924,NY,yes,yes,23,23,20,24,1,24,7.84,23.26,148,165,83,8c,APPALACHIAN HIGHLANDS,APPALACHIAN PLATEAUS,SOUTHERN NEW YORK,8,"c(1751159.0087, 2352827.8854)"
01350140,1.49965270356878,0.428298151238039,1.84146846876653,0.459146755035003,1.1792267411951,0.0335453685404314,5.14362317619949,11.1,2.07476635514019,107.2,13.2345679012346,0,166.45,MINE KILL NEAR NORTH BLENHEIM NY,Ref,NorthEast,43.7598,02,42.428968,-74.472925,NY,yes,yes,34,34,20,27,1,27,7.84,23.26,148,165,83,8c,APPALACHIAN HIGHLANDS,APPALACHIAN PLATEAUS,SOUTHERN NEW YORK,8,"c(1745071.0757, 2357382.886)"
01365000,2.71921109259339,0.64567313638997,1.56080308910702,0.554875052263605,1.30994604639525,0.270285537823007,8.00536620206686,5.3,1.55882352941176,47.6,10.8181818181818,0,165.75,RONDOUT CREEK NEAR LOWES CORNERS NY,Ref,NorthEast,99.5688,02,41.866482,-74.4871,NY,yes,yes,72,60,20,47,1,47,7.84,23.26,148,165,83,8c,APPALACHIAN HIGHLANDS,APPALACHIAN PLATEAUS,SOUTHERN NEW YORK,8,"c(1758061.3812, 2295818.0356)"
01413500,1.95934007072571,0.511237169194687,1.79048501279787,0.530017057050457,1.21259553238624,0.132683889525165,5.99961935244224,5.5,2.07547169811321,70,17.2839506172839,0,162.5,EAST BR DELAWARE R AT MARGARETVILLE NY,Ref,NorthEast,424.1025,02,42.14481,-74.653489,NY,yes,yes,72,60,20,59,1,59,0.533,3.365,154,13,82,8b,APPALACHIAN HIGHLANDS,APPALACHIAN PLATEAUS,CATSKILL,8,"c(1737759.4938, 2323103.7513)"
01414500,2.23957781138062,0.562712057263301,1.74636303392218,0.530299153727381,1.16106306057331,0.163231572472612,6.71147488678085,5.45,1.703125,59.55,13.0879120879121,0,159.65,MILL BROOK NEAR DUNRAVEN NY,Ref,NorthEast,64.4517,02,42.106199,-74.730435,NY,yes,yes,72,60,20,61,1,61,0.533,3.365,154,13,82,8b,APPALACHIAN HIGHLANDS,APPALACHIAN PLATEAUS,CATSKILL,8,"c(1732559.1466, 2317488.4571)"
01415000,1.80987808224174,0.479676467756593,1.76999137430032,0.509840195556551,1.26266956273992,0.102857315940391,5.65715237672151,5.6,1.93103448275862,76.35,11.5681818181818,0,160.85,TREMPER KILL NEAR ANDES NY,Ref,NorthEast,85.6287,02,42.120087,-74.818493,NY,yes,yes,72,60,20,62,1,62,0.533,3.365,154,13,82,8b,APPALACHIAN HIGHLANDS,APPALACHIAN PLATEAUS,CATSKILL,8,"c(1725162.2748, 2317401.2757)"
01423000,1.84068784696944,0.496978105834379,1.80698622111887,0.522809848365314,1.47967486676758,0.105298826523015,5.74874674531055,5.15,1.90740740740741,78.65,18.0804597701149,0,162.2,WEST BRANCH DELAWARE RIVER AT WALTON NY,Ref,NorthEast,859.6809,02,42.166196,-75.139891,NY,yes,yes,59,59,20,80,1,80,0.533,3.365,154,13,82,8b,APPALACHIAN HIGHLANDS,APPALACHIAN PLATEAUS,CATSKILL,8,"c(1698287.6479, 2316643.6223)"
01434025,2.81643958208618,0.634761838781561,1.3568833751885,0.493758123801482,0.738849584355461,0.24465755455488,9.08007418966565,8.3,1.41880341880342,51.65,9.93269230769231,0,163.85,BISCUIT BK ABOVE PIGEON BK AT FROST VALLEY NY,Ref,NorthEast,9.7002,02,41.99537,-74.500987,NY,yes,yes,26,26,20,103,1,103,0.533,3.365,154,13,82,8b,APPALACHIAN HIGHLANDS,APPALACHIAN PLATEAUS,CATSKILL,8,"c(1753711.7717, 2309612.7256)"
01435000,2.96731545763314,0.687251847880788,1.31835989211088,0.540275165102473,1.2464842534082,0.38303107810401,8.71041044280972,6.15,1.41379310344828,39.3,11.3913043478261,0,165.3,NEVERSINK RIVER NEAR CLARYVILLE NY,Ref,NorthEast,172.458,02,41.890092,-74.589879,NY,yes,yes,68,58,20,105,1,105,7.84,23.26,148,165,83,8c,APPALACHIAN HIGHLANDS,APPALACHIAN PLATEAUS,SOUTHERN NEW YORK,8,"c(1749215.0092, 2296495.8002)"
01439500,2.02736445037383,0.550426939143426,1.67374702409105,0.584467109658076,1.16053667283065,0.119977223693056,5.85488851622114,3.25,2.32142857142857,56.75,15.9859154929577,0,156.1,"Bush Kill at Shoemakers, PA",Ref,NorthEast,305.8776,02,41.088151,-75.037675,PA,yes,yes,101,60,20,112,1,112,7.235,22.16,161,191,62,6b,APPALACHIAN HIGHLANDS,VALLEY AND RIDGE,MIDDLE,6,"c(1732869.836, 2200757.1598)"
01440000,1.79709074453516,0.506237971462614,1.64802817461977,0.589172275759407,0.95312010851275,0.160459879567355,5.21932226447269,3.6,1.63636363636364,56.4,15.887323943662,0,159.85,FLAT BROOK NEAR FLATBROOKVILLE NJ,Ref,NorthEast,167.7204,02,41.106667,-74.952222,NJ,yes,yes,86,60,20,114,1,114,7.235,22.16,161,191,62,6b,APPALACHIAN HIGHLANDS,VALLEY AND RIDGE,MIDDLE,6,"c(1739362.7953, 2204340.9436)"
01440400,2.06901143340694,0.551243771791167,1.58784621123023,0.5625869373212,1.14714703934437,0.195491453899225,6.13005344726855,4.45,1.85416666666667,59.85,14.9625,0,156.1,"Brodhead Creek near Analomink, PA",Ref,NorthEast,175.2084,02,41.084815,-75.214625,PA,yes,yes,52,52,20,116,1,116,7.84,23.26,148,165,83,8c,APPALACHIAN HIGHLANDS,APPALACHIAN PLATEAUS,SOUTHERN NEW YORK,8,"c(1718558.1248, 2197179.3648)"
01451800,1.75990922716448,0.502370836246927,1.58160098037788,0.477158376006432,1.54839718163361,0.135440577904351,5.9039124251391,10,2,73.35,9.16875,0,153.5,"Jordan Creek near Schnecksville, PA",Ref,EastHghlnds,135.8448,02,40.661762,-75.626854,PA,yes,yes,43,43,20,140,1,140,7.235,22.16,161,191,62,6b,APPALACHIAN HIGHLANDS,VALLEY AND RIDGE,MIDDLE,6,"c(1695082.452, 2143506.4684)"
01510000,1.90006102772175,0.548786686711458,1.76252712319227,0.504188789855325,1.32172099343214,0.127761849946411,6.31143538735271,9.2,2.02197802197802,79.1,16.6526315789474,0,164,OTSELIC RIVER AT CINCINNATUS NY,Ref,NorthEast,382.986,02,42.541181,-75.899642,NY,yes,yes,66,55,20,165,1,165,7.84,23.26,148,165,83,8c,APPALACHIAN HIGHLANDS,APPALACHIAN PLATEAUS,SOUTHERN NEW YORK,8,"c(1628574.6352, 2344303.8456)"
01516500,1.02918261279843,0.323373524799016,1.62471008061911,0.416854381271141,1.20138366307422,0.0233155229880762,3.57504685817169,15.75,2.14285714285714,122.15,14.121387283237,0,158.45,"Corey Creek near Mainesburg, PA",Ref,NorthEast,31.4838,02,41.790907,-77.014688,PA,yes,yes,55,55,20,172,1,172,2.999,11.795,162,204,84,8d,APPALACHIAN HIGHLANDS,APPALACHIAN PLATEAUS,ALLEGHENY MOUNTAIN,8,"c(1556124.3107, 2243476.8174)"
01518862,1.19837841033994,0.395290298333401,1.74560453254043,0.429466195403569,1.64372105819724,0.0345162639490019,4.2862924140306,16.25,2.32142857142857,120.15,13.8901734104046,0,163.65,"Cowanesque River at Westfield, PA",Ref,NorthEast,233.9109,02,41.923126,-77.53193,PA,yes,yes,26,26,20,177,1,177,7.84,23.26,148,165,83,8c,APPALACHIAN HIGHLANDS,APPALACHIAN PLATEAUS,SOUTHERN NEW YORK,8,"c(1511414.7772, 2249635.3406)"
01532000,1.34774802273946,0.421819974940574,1.5690267488535,0.436231935738121,1.67630497305373,0.0388667812413428,4.63751367084204,14.35,2.15789473684211,101.2,13.6756756756757,0,150.8,"Towanda Creek near Monroeton, PA",Ref,NorthEast,553.941,02,41.70702,-76.484665,PA,yes,yes,95,60,20,196,1,196,7.84,23.26,148,165,83,8c,APPALACHIAN HIGHLANDS,APPALACHIAN PLATEAUS,SOUTHERN NEW YORK,8,"c(1600877.5328, 2243085.8189)"
01539000,1.7784964377676,0.519507507471259,1.6869765430393,0.518896819455807,1.40648448631555,0.128990987468018,5.50129130336571,6.35,1.92424242424242,67.55,14.0729166666667,0,154.25,"Fishing Creek near Bloomsburg, PA",Ref,EastHghlnds,701.7795,02,41.078141,-76.431056,PA,yes,yes,71,60,20,207,1,207,7.235,22.16,161,191,62,6b,APPALACHIAN HIGHLANDS,VALLEY AND RIDGE,MIDDLE,6,"c(1619605.8865, 2175084.2697)"
01542810,1.59920512670015,0.467258394194627,1.667859602496,0.386466354314944,1.41962584997273,0.0413151523844511,6.28708840632952,18.55,2.34810126582278,119.45,14.6564417177914,0,157.8,"Waldy Run near Emporium, PA",Ref,NorthEast,13.6242,02,41.578952,-78.292512,PA,yes,yes,45,45,20,215,1,215,14.048,21.081,156,199,85,8e,APPALACHIAN HIGHLANDS,APPALACHIAN PLATEAUS,KANAWHA,8,"c(1457041.2756, 2199940.7922)"
01543000,1.64794461197671,0.486116606363887,1.7344986483274,0.448967038468495,1.93780367076782,0.0589536276035855,5.96471996930395,11.6,2.20952380952381,96.6,12.1509433962264,0,159.8,"Driftwood Br Sinnemahoning Cr at Sterling Run, PA",Ref,NorthEast,705.4974,02,41.413396,-78.196952,PA,yes,yes,96,60,20,216,1,216,14.048,21.081,156,199,85,8e,APPALACHIAN HIGHLANDS,APPALACHIAN PLATEAUS,KANAWHA,8,"c(1468263.3415, 2183204.367)"
01543500,1.63054821091537,0.478316788526037,1.79669094630527,0.482957364176171,2.05031436983567,0.0619121498260637,5.67940787737757,8.45,2.13924050632911,89.8,15.7543859649123,0,163.75,"Sinnemahoning Creek at Sinnemahoning, PA",Ref,NorthEast,1778.258,02,41.317285,-78.10306,PA,yes,yes,71,60,20,217,1,217,2.999,11.795,162,204,84,8d,APPALACHIAN HIGHLANDS,APPALACHIAN PLATEAUS,ALLEGHENY MOUNTAIN,8,"c(1477929.5222, 2174090.5307)"
01544500,1.63421730305854,0.485865266892819,1.76324322488628,0.485230737581888,1.03998874656978,0.0757965724132169,5.65028994353072,8.45,2.31506849315068,91.15,15.3193277310924,0,160.6,"Kettle Creek at Cross Fork, PA",Ref,NorthEast,355.0644,02,41.475899,-77.825825,PA,yes,yes,69,60,20,219,1,219,2.999,11.795,162,204,84,8d,APPALACHIAN HIGHLANDS,APPALACHIAN PLATEAUS,ALLEGHENY MOUNTAIN,8,"c(1497171.2271, 2195865.7562)"
01545600,1.51791098110689,0.448479056936079,1.75019160883107,0.514876335595222,1.06958327839606,0.065242014547968,5.0725666311045,6.85,2.63461538461538,84.6,17.4432989690722,0,164.35,"Young Womans Creek near Renovo, PA",Ref,NorthEast,119.9975,02,41.389512,-77.690819,PA,yes,yes,44,44,20,222,1,222,2.999,11.795,162,204,84,8d,APPALACHIAN HIGHLANDS,APPALACHIAN PLATEAUS,ALLEGHENY MOUNTAIN,8,"c(1510006.8813, 2188509.9509)"
01547700,1.34796520855921,0.429971169656749,1.84077502895272,0.442897107242556,2.38480397517291,0.0387866477187585,4.82678282722328,15.45,2.8348623853211,116.05,14.1524390243902,0,158.65,"Marsh Creek at Blanchard, PA",Ref,EastHghlnds,113.5386,02,41.059509,-77.605826,PA,yes,yes,54,54,20,228,1,228,7.235,22.16,161,191,62,6b,APPALACHIAN HIGHLANDS,VALLEY AND RIDGE,MIDDLE,6,"c(1524035.1377, 2153608.922)"
01548500,1.43544359605518,0.455212892499828,1.72819889426657,0.494162982650303,1.10720797436017,0.0848496062808742,5.01241192659239,8.9,2.50704225352113,88.7,16.4259259259259,0,162.2,"Pine Creek at Cedar Run, PA",Ref,NorthEast,1557.047,02,41.521736,-77.44748,PA,yes,yes,91,60,20,232,1,232,2.999,11.795,162,204,84,8d,APPALACHIAN HIGHLANDS,APPALACHIAN PLATEAUS,ALLEGHENY MOUNTAIN,8,"c(1526950.9439, 2206920.2648)"
01549500,1.51114706186231,0.453494786847218,1.66070246009029,0.471683754996156,1.00829010161093,0.0577200097934377,5.06430346796334,11.4,2.375,94.2,13.0833333333333,0,154.6,"Blockhouse Creek near English Center, PA",Ref,NorthEast,97.4853,02,41.473683,-77.230809,PA,yes,yes,69,60,20,233,1,233,2.999,11.795,162,204,84,8d,APPALACHIAN HIGHLANDS,APPALACHIAN PLATEAUS,ALLEGHENY MOUNTAIN,8,"c(1545608.0665, 2205148.0563)"
01550000,1.67291947124337,0.496449757656269,1.74260256807022,0.49511430341099,1.56375710036878,0.0918789968064187,5.56678627709478,8.75,1.94444444444444,82.7,14.0169491525424,0,155.6,"Lycoming Creek near Trout Run, PA",Ref,NorthEast,452.6757,02,41.41841,-77.032746,PA,yes,yes,95,60,20,235,1,235,2.999,11.795,162,204,84,8d,APPALACHIAN HIGHLANDS,APPALACHIAN PLATEAUS,ALLEGHENY MOUNTAIN,8,"c(1562928.807, 2202322.1734)"
01552000,1.71924967115064,0.494463815495184,1.6708611448027,0.51054949836829,1.21432539065678,0.110470524593391,5.45854356814401,6.35,1.71621621621622,67.15,13.2970297029703,0,150.15,"Loyalsock Creek at Loyalsockville, PA",Ref,NorthEast,1129.486,02,41.325078,-76.912464,PA,yes,yes,83,59,20,237,1,237,7.235,22.16,161,191,62,6b,APPALACHIAN HIGHLANDS,VALLEY AND RIDGE,MIDDLE,6,"c(1574791.2779, 2194069.3386)"
01552500,1.98256601630074,0.547203753444974,1.60336053021287,0.484827872972471,1.1824889906512,0.108933937549172,6.09223132219441,6.9,1.55056179775281,72.55,10.290780141844,0,149.15,"Muncy Creek near Sonestown, PA",Ref,NorthEast,60.6384,02,41.357024,-76.534671,PA,yes,yes,69,60,20,238,1,238,2.999,11.795,162,204,84,8d,APPALACHIAN HIGHLANDS,APPALACHIAN PLATEAUS,ALLEGHENY MOUNTAIN,8,"c(1604800.4264, 2203892.1054)"
01557500,1.59941790172491,0.507252635070237,1.76891150738684,0.530439750077974,1.62476427003451,0.120949528270843,5.4957768109032,7.8,1.90243902439024,87.5,13.2575757575758,0,165.2,"Bald Eagle Creek at Tyrone, PA",Ref,EastHghlnds,115.2963,02,40.683673,-78.233624,PA,yes,yes,65,60,20,246,1,246,7.235,22.16,161,191,62,6b,APPALACHIAN HIGHLANDS,VALLEY AND RIDGE,MIDDLE,6,"c(1480460.2954, 2102356.0775)"
01567500,1.2966135937239,0.403572520340108,1.46006944907113,0.553409319445927,1.64536187419807,0.220867021135435,3.97560638043782,8.55,1.8,41.25,7.56880733944954,0,162.85,"Bixler Run near Loysville, PA",Ref,EastHghlnds,38.7729,02,40.370916,-77.402209,PA,yes,yes,55,55,20,258,1,258,7.235,22.16,161,191,62,6b,APPALACHIAN HIGHLANDS,VALLEY AND RIDGE,MIDDLE,6,"c(1555687.2091, 2081243.4054)"
01568000,1.42334696665279,0.427469830225647,1.68624894497609,0.517278236493741,1.78634257291124,0.123612978779202,4.6240410580368,10.05,1.7787610619469,85.4,12.2877697841727,0,161.75,"Sherman Creek at Shermans Dale, PA",Ref,EastHghlnds,534.3948,02,40.323419,-77.16887,PA,yes,yes,80,60,20,259,1,259,7.235,22.16,161,191,62,6b,APPALACHIAN HIGHLANDS,VALLEY AND RIDGE,MIDDLE,6,"c(1575998.7059, 2079870.0507)"
01594950,1.80376842052541,0.460015525667394,2.23643727822973,0.468280719879937,1.69636920814356,0.0199883623002353,6.3962759360753,8.55,1.72727272727273,116.85,15.2745098039216,0.00917180013689254,163.55,"MCMILLAN F NEAR FORT PENDLETON, MD",Ref,EastHghlnds,6.1182,02,39.27669,-79.39031,MD,yes,yes,23,23,20,271,1,271,2.999,11.795,162,204,84,8d,APPALACHIAN HIGHLANDS,APPALACHIAN PLATEAUS,ALLEGHENY MOUNTAIN,8,"c(1412505.4171, 1929673.8133)"
01596500,1.53661247899157,0.463635893331234,1.81922288196779,0.441481526371212,1.85521439330626,0.0471061476880635,6.21408598251702,17.75,2.46527777777778,118.7,14.9308176100629,0,162.4,"SAVAGE RIVER NEAR BARTON, MD",Ref,EastHghlnds,124.6505,02,39.570056,-79.101944,MD,yes,yes,61,60,20,277,1,277,2.999,11.795,162,204,84,8d,APPALACHIAN HIGHLANDS,APPALACHIAN PLATEAUS,ALLEGHENY MOUNTAIN,8,"c(1430956.2406, 1966356.2126)"
01605500,1.00959725724073,0.314546729407771,1.50398177264464,0.544434859625252,1.90503009613894,0.158234917250111,3.1857963339689,8.85,2.39189189189189,56.25,10.1351351351351,0,173.6,"SOUTH BRANCH POTOMAC RIVER AT FRANKLIN, WV",Ref,EastHghlnds,463.8492,02,38.635672,-79.33782,WV,yes,yes,62,53,20,289,1,289,7.235,22.16,161,191,62,6b,APPALACHIAN HIGHLANDS,VALLEY AND RIDGE,MIDDLE,6,"c(1429455.9345, 1859709.8801)"
01606500,1.21023702242715,0.35981723587233,1.70438134279501,0.518890696452234,2.07378631355448,0.113284196107451,4.19732470192991,11,2.41758241758242,90.35,15.3135593220339,0,171.85,"SO. BRANCH POTOMAC RIVER NR PETERSBURG, WV",Ref,EastHghlnds,1684.547,02,38.991221,-79.175871,WV,yes,yes,81,60,20,291,1,291,7.235,22.16,161,191,62,6b,APPALACHIAN HIGHLANDS,VALLEY AND RIDGE,MIDDLE,6,"c(1436186.5966, 1901386.3138)"
01613050,1.23865198318043,0.401052266275073,1.69479930132314,0.418222660913511,2.08106262575762,0.00964599677456516,4.99838014682013,25.45,3.22151898734177,139.15,17.39375,0.010403832991102,163.8,"Tonoloway Creek near Needmore, PA",Ref,EastHghlnds,27.8982,02,39.898421,-78.132229,PA,yes,yes,42,42,20,300,1,300,7.235,22.16,161,191,62,6b,APPALACHIAN HIGHLANDS,VALLEY AND RIDGE,MIDDLE,6,"c(1505252.5868, 2017519.9228)"
01620500,1.63257950289079,0.480365976915241,1.49207861509594,0.414732516292679,1.98393488163238,0.0399195384052442,5.4684299185266,14.85,2.72477064220183,116.9,32.4722222222222,0,172.05,"NORTH RIVER NEAR STOKESVILLE, VA",Ref,EastHghlnds,44.74026,02,38.337626,-79.240036,VA,yes,yes,63,60,20,317,1,317,7.235,22.16,161,191,62,6b,APPALACHIAN HIGHLANDS,VALLEY AND RIDGE,MIDDLE,6,"c(1443619.0916, 1828296.0818)"
01632000,0.946655484962209,0.322975927031301,1.5278155857037,0.391340570141825,1.67304116673991,0.0171101793895124,3.48057070212975,23.95,3.05095541401274,140.2,23.563025210084,0,173.7,"N F SHENANDOAH RIVER AT COOTES STORE, VA",Ref,EastHghlnds,543.357,02,38.637063,-78.852803,VA,yes,yes,84,60,20,329,1,329,7.235,22.16,161,191,62,6b,APPALACHIAN HIGHLANDS,VALLEY AND RIDGE,MIDDLE,6,"c(1470591.752, 1867263.6716)"
01632900,0.799203450500426,0.27481863878643,1.47637689693793,0.592229401683872,2.65813269814611,0.119807821042994,2.41612439103371,8.1,1.88372093023256,46.1,11.525,0,172.5,"SMITH CREEK NEAR NEW MARKET, VA",Ref,EastHghlnds,245.0484,02,38.69345,-78.642794,VA,yes,yes,49,49,20,331,1,331,7.235,22.16,161,191,62,6b,APPALACHIAN HIGHLANDS,VALLEY AND RIDGE,MIDDLE,6,"c(1487255.3143, 1876748.2988)"
01634500,0.990485105439823,0.332469035401879,1.49259367705532,0.482440402221566,2.88162335544957,0.0852659103683952,3.39210034726442,14.55,2.34677419354839,106.55,12.3895348837209,0,171.4,"CEDAR CREEK NEAR WINCHESTER, VA",Ref,EastHghlnds,263.9817,02,39.081218,-78.329449,VA,yes,yes,72,60,20,334,1,334,7.235,22.16,161,191,62,6b,APPALACHIAN HIGHLANDS,VALLEY AND RIDGE,MIDDLE,6,"c(1505762.0206, 1924409.1627)"
02011400,0.992886458828164,0.301920852489919,1.70320151945236,0.541782728707136,1.9942077424853,0.12601316211254,3.22713707543447,9.4,2.08888888888889,73.75,13.0530973451327,0,171.45,"JACKSON RIVER NEAR BACOVA, VA",Ref,EastHghlnds,407.7162,02,38.042347,-79.881444,VA,yes,yes,35,35,20,348,1,348,7.235,22.16,161,191,62,6b,APPALACHIAN HIGHLANDS,VALLEY AND RIDGE,MIDDLE,6,"c(1394499.545, 1786115.8192)"
02011460,1.45813253591016,0.428324970225943,1.78871138734071,0.446487037803338,1.63149965909414,0.0579015576214057,5.07029855927985,13.8,1.95744680851064,111.2,16.4740740740741,0,164.35,"BACK CREEK NEAR SUNRISE, VA",Ref,EastHghlnds,156.3408,02,38.245401,-79.768663,VA,yes,yes,35,35,20,349,1,349,7.235,22.16,161,191,62,6b,APPALACHIAN HIGHLANDS,VALLEY AND RIDGE,MIDDLE,6,"c(1400293.7246, 1810204.5815)"
02013000,0.977041522304727,0.32178937423066,1.53626473175612,0.455218847149974,1.60109515532406,0.0863944469683884,3.44425861913975,18.2,2.34838709677419,112.95,18.072,0,168.55,"DUNLAP CREEK NEAR COVINGTON, VA",Ref,EastHghlnds,424.7766,02,37.802902,-80.047004,VA,yes,yes,81,60,20,355,1,355,7.235,22.16,161,191,62,6b,APPALACHIAN HIGHLANDS,VALLEY AND RIDGE,MIDDLE,6,"c(1384795.5435, 1757238.7682)"
02014000,1.06566502349611,0.341059346595645,1.73583883431472,0.542675134508477,1.70538034515475,0.141819742798585,3.36667737252292,9.3,2.21428571428571,75.1,12.1129032258065,0,173,"POTTS CREEK NEAR COVINGTON, VA",Ref,EastHghlnds,396.783,02,37.729014,-80.04228,VA,yes,yes,72,51,20,357,1,357,7.235,22.16,161,191,62,6b,APPALACHIAN HIGHLANDS,VALLEY AND RIDGE,MIDDLE,6,"c(1386585.7885, 1749142.8745)"
02015700,1.35545952143831,0.424175010789272,1.43730923433701,0.559091949767538,1.62371760230727,0.282880743502717,3.97747469652305,8.15,1.75268817204301,11.9,7,0,171.05,"BULLPASTURE RIVER AT WILLIAMSVILLE, VA",Ref,EastHghlnds,285.4062,02,38.195403,-79.570323,VA,yes,yes,49,49,20,358,1,358,7.235,22.16,161,191,62,6b,APPALACHIAN HIGHLANDS,VALLEY AND RIDGE,MIDDLE,6,"c(1418198.9698, 1807624.2226)"
02016000,1.15571291620652,0.367497959675417,1.50172248861865,0.49776856329352,1.79524111453413,0.161801069941279,3.84635961202179,12.3,1.95238095238095,74.85,15.2755102040816,0,170.3,"COWPASTURE RIVER NEAR CLIFTON FORGE, VA",Ref,EastHghlnds,1194.551,02,37.791796,-79.759492,VA,yes,yes,84,60,20,359,1,359,7.235,22.16,161,191,62,6b,APPALACHIAN HIGHLANDS,VALLEY AND RIDGE,MIDDLE,6,"c(1409723.4469, 1760239.0566)"
02017500,1.1691096871465,0.386444504683533,1.92896199022554,0.511085489851109,1.64859488017618,0.0877099326486805,4.14451580737906,14.5,2.56637168141593,119.65,19.6147540983607,0,171.4,"JOHNS CREEK AT NEW CASTLE, VA",Ref,EastHghlnds,276.1497,02,37.50624,-80.106715,VA,yes,yes,83,60,20,361,1,361,7.235,22.16,161,191,62,6b,APPALACHIAN HIGHLANDS,VALLEY AND RIDGE,MIDDLE,6,"c(1385195.4212, 1723585.8241)"
02018000,1.11380313618585,0.364492460019353,1.7493286232998,0.509781835040029,1.33111231201137,0.114816882725147,3.92673738920002,13.2,2.27586206896552,101.65,20.1287128712871,0,170.05,"CRAIG CREEK AT PARR, VA",Ref,EastHghlnds,852.3431,02,37.665962,-79.911439,VA,yes,yes,84,60,20,362,1,362,7.235,22.16,161,191,62,6b,APPALACHIAN HIGHLANDS,VALLEY AND RIDGE,MIDDLE,6,"c(1399037.0233, 1744094.0469)"
02027500,1.84530362023873,0.503420057110929,1.72642923773163,0.571559293704684,0.757294270560196,0.12695057152191,5.45490737008205,4.5,1.83673469387755,74.1,13.5963302752294,0,162.4,"PINEY RIVER AT PINEY RIVER, VA",Ref,EastHghlnds,123.3423,02,37.702363,-79.027525,VA,yes,yes,60,60,20,372,1,372,0.782,8.781,226,241,51,5a,APPALACHIAN HIGHLANDS,BLUE RIDGE,NORTHERN,5,"c(1474378.7253, 1761475.2275)"
02028500,1.42776697760516,0.42921672989402,1.73475510213656,0.56085610624023,1.72875302611348,0.0737610879489147,4.53331659448194,7,1.79487179487179,83.45,16.0480769230769,0,164.1,"ROCKFISH RIVER NEAR GREENFIELD, VA",Ref,EastHghlnds,245.4534,02,37.869585,-78.823354,VA,yes,yes,66,60,20,373,1,373,0.782,8.781,226,241,51,5a,APPALACHIAN HIGHLANDS,BLUE RIDGE,NORTHERN,5,"c(1488553.3541, 1783098.35)"
02053800,0.968322424276586,0.299970752210596,1.5546269846752,0.599847891536516,1.86515717676482,0.156876459888424,2.60589230592438,5.8,1.75757575757576,34.4,8.6,0,175.5,"S F ROANOKE RIVER NEAR SHAWSVILLE, VA",Ref,EastHghlnds,280.7226,03,37.140132,-80.266433,VA,yes,yes,49,49,20,374,1,374,7.235,22.16,161,191,62,6b,APPALACHIAN HIGHLANDS,VALLEY AND RIDGE,MIDDLE,6,"c(1378164.5513, 1680803.1555)"
02055100,0.98135013790746894,0.3210982630564,1.83055756168392,0.620298971455735,1.57763700852463,0.120165793003379,2.72375797474326,5.9,1.61643835616438,46.55,12.4133333333333,0,171.1,"TINKER CREEK NEAR DALEVILLE, VA",Ref,EastHghlnds,30.5352,03,37.417633,-79.935319,VA,yes,yes,53,53,20,378,1,378,7.235,22.16,161,191,62,6b,APPALACHIAN HIGHLANDS,VALLEY AND RIDGE,MIDDLE,6,"c(1401662.4185, 1716308.9395)"
02111180,1.72748798068226,0.464919806052248,1.33840284159942,0.636780747168883,1.70897168506238,0.334968888871061,4.39181432075391,3.9,1.44444444444444,18.95,8.42222222222222,0,176.75,"ELK CREEK AT ELKVILLE, NC",Ref,EastHghlnds,131.4666,03,36.071389,-81.403056,NC,yes,yes,44,44,20,382,1,382,3.91,12.376,299,304,52,5b,APPALACHIAN HIGHLANDS,BLUE RIDGE,SOUTHERN,5,"c(1297735.9528, 1546593.5694)"
02137727,1.75311155928819,0.440334441541321,1.29612943554824,0.680549449870027,2.3339344270149,0.415755994873863,4.23180209068039,2.8,1.30232558139535,10.25,8.54166666666667,0,176.45,"CATAWBA R NR PLEASANT GARDENS, NC",Ref,EastHghlnds,329.544,03,35.685833,-82.060278,NC,yes,yes,29,29,20,383,1,383,3.91,12.376,299,304,52,5b,APPALACHIAN HIGHLANDS,BLUE RIDGE,SOUTHERN,5,"c(1246045.3556, 1495111.3009)"
02149000,1.51983772805052,0.397696961482616,1.22041329404058,0.699589032328056,2.35147979186214,0.360055267924768,3.6845655750968,2.55,1.15909090909091,9.9,7.61538461538461,0,173.6,"COVE CREEK NEAR LAKE LURE, NC",Ref,EastHghlnds,203.8527,03,35.423454,-82.111498,NC,yes,yes,58,58,20,386,1,386,3.91,12.376,299,304,52,5b,APPALACHIAN HIGHLANDS,BLUE RIDGE,SOUTHERN,5,"c(1245776.8142, 1465382.4184)"
02177000,2.91605077386392,0.542573791690081,1.36588775290816,0.733192898381514,2.1456866643598,0.692957213576859,6.78094860470651,0.75,1.15384615384615,9.15,8.31818181818182,0,173.15,"CHATTOOGA RIVER NEAR CLAYTON, GA",Ref,EastHghlnds,526.7736,03,34.813981,-83.305993,GA,yes,yes,70,60,20,388,1,388,3.91,12.376,299,304,52,5b,APPALACHIAN HIGHLANDS,BLUE RIDGE,SOUTHERN,5,"c(1148383.3082, 1382801.5584)"
02178400,2.86573127964186,0.549718105569608,1.29969456545633,0.722336618025632,2.0501929209974,0.711589925992512,6.62425531105754,0.85,1.13333333333333,7.5,6.52173913043478,0,169.8,"TALLULAH RIVER NEAR CLAYTON, GA",Ref,EastHghlnds,151.2753,03,34.890371,-83.530441,GA,yes,yes,45,45,20,389,1,389,3.91,12.376,299,304,52,5b,APPALACHIAN HIGHLANDS,BLUE RIDGE,SOUTHERN,5,"c(1127077.9158, 1388585.2693)"
02384540,2.08084750683956,0.422264679584768,1.58388453816193,0.479563394171398,2.33003255906148,0.111051861449805,6.84629001515285,9.6,1.58677685950413,84.1,9.66666666666667,0,155.35,"MILL CREEK NEAR CRANDALL, GA",Ref,EastHghlnds,21.3714,03,34.872024,-84.721326,GA,yes,yes,24,24,20,395,1,395,4.41,16.55,298,305,61,6a,APPALACHIAN HIGHLANDS,VALLEY AND RIDGE,TENNESSEE,6,"c(1020213.9283, 1373094.4172)"
02395120,1.28732672588619,0.342948106698397,1.16539685472072,0.565288618321836,2.18021425443434,0.238803945643378,3.64030404944173,7.75,1.51960784313725,22.8,4.75,0,161.25,"TWO RUN CREEK NEAR KINGSTON, GA",Ref,EastHghlnds,84.0105,03,34.242778,-84.889722,GA,yes,yes,29,29,20,408,1,408,4.41,16.55,298,305,61,6a,APPALACHIAN HIGHLANDS,VALLEY AND RIDGE,TENNESSEE,6,"c(1013259.8299, 1301410.3708)"
02450250,1.75247304731255,0.397427136344996,1.56278907552721,0.373479852823845,1.40433429863516,0.0401026056726284,6.65914320511277,26.95,2.49537037037037,157.75,20.0955414012739,0,143.75,SIPSEY FORK NEAR GRAYSON AL,Ref,EastHghlnds,231.8252,03,34.285378,-87.398908,AL,yes,yes,43,43,20,442,1,442,4.107,15.162,278,303,86,8f,APPALACHIAN HIGHLANDS,APPALACHIAN PLATEAUS,CUMBERLAND PLATEAU,8,"c(784707.870700002, 1282410.1434)"
03010655,1.49695524422339,0.455751399378086,1.92701760457862,0.493939565322932,1.50491123918167,0.0817320080850684,4.96930609157215,8.5,2.65625,93.2,14.912,0,159.05,"Oswayo Creek at Shinglehouse, PA",Ref,NorthEast,254.4417,05,41.961732,-78.198066,PA,yes,yes,35,35,20,463,1,463,14.048,21.081,156,199,85,8e,APPALACHIAN HIGHLANDS,APPALACHIAN PLATEAUS,KANAWHA,8,"c(1456745.6102, 2243473.1654)"
03011800,1.93147476637408,0.538101433725681,1.84061438473527,0.548834546524939,1.74213348021016,0.180865724645965,5.81214450281222,3.5,1.52173913043478,62.45,11.3545454545455,0,155.6,"Kinzua Creek near Guffey, PA",Ref,NorthEast,100.0953,05,41.766451000000004,-78.71864,PA,yes,yes,44,44,20,465,1,465,14.048,21.081,156,199,85,8e,APPALACHIAN HIGHLANDS,APPALACHIAN PLATEAUS,KANAWHA,8,"c(1418575.5706, 2214120.9177)"
03015500,2.04893351672986,0.56929237306701,1.72886637997163,0.484368459581503,1.47805590794982,0.180800639156311,7.16968051826749,7.85,2.09333333333333,76.9,12.304,0,148.65,"Brokenstraw Creek at Youngsville, PA",Ref,NorthEast,784.8513,05,41.852559,-79.317271,PA,yes,yes,100,60,20,472,1,472,14.048,21.081,156,199,85,8e,APPALACHIAN HIGHLANDS,APPALACHIAN PLATEAUS,KANAWHA,8,"c(1368268.1695, 2214824.4251)"
03021350,2.29105418490273,0.621600220645083,1.55272124205279,0.407554854675411,1.44849024341602,0.0928937182980518,9.06071036937919,17.05,1.82352941176471,104.9,11.5274725274725,0,141.4,"French Creek near Wattsburg, PA",Ref,NorthEast,239.6691,05,42.015332,-79.782551,PA,yes,yes,35,35,20,477,1,477,7.84,23.26,148,165,83,8c,APPALACHIAN HIGHLANDS,APPALACHIAN PLATEAUS,SOUTHERN NEW YORK,8,"c(1327391.4236, 2226163.0159)"
03026500,1.7461839707601,0.493333355496781,1.90233133781064,0.505318322625727,1.26496032020319,0.0951646814861424,5.54123461818044,5.5,1.71875,74.2,11.0746268656716,0,158.55,"Sevenmile Run near Rasselas, PA",Ref,NorthEast,20.3058,05,41.631173,-78.57669,PA,yes,yes,57,57,20,486,1,486,14.048,21.081,156,199,85,8e,APPALACHIAN HIGHLANDS,APPALACHIAN PLATEAUS,KANAWHA,8,"c(1432857.3163, 2201364.5607)"
03028000,1.98092537921641,0.571807346270101,1.83519056641166,0.518663808727834,1.80305862642512,0.167043206511308,6.31119605691812,4.7,1.77358490566038,71,9.16129032258065,0,158.65,"West Branch Clarion River at Wilcox, PA",Ref,NorthEast,161.1102,05,41.57534,-78.692249,PA,yes,yes,56,56,20,488,1,488,14.048,21.081,156,199,85,8e,APPALACHIAN HIGHLANDS,APPALACHIAN PLATEAUS,KANAWHA,8,"c(1424591.323, 2193482.822)"
03049000,1.27723560702604,0.387928098484378,1.83654452687204,0.476524666928439,1.23136152406697,0.0678177177682574,4.49241003155789,9.95,1.80909090909091,97.45,11.8121212121212,0,159.05,"Buffalo Creek near Freeport, PA",Ref,EastHghlnds,357.1533,05,40.715898,-79.699494,PA,yes,yes,69,60,20,512,1,512,14.048,21.081,156,199,85,8e,APPALACHIAN HIGHLANDS,APPALACHIAN PLATEAUS,KANAWHA,8,"c(1358949.406, 2084008.4407)"
03049800,1.07702479012463,0.355803193404084,1.75674161698867,0.42466958925213,2.12587161657949,0.0427205938107917,3.77912945249311,15.7,1.85798816568047,117.75,8.03754266211604,0,165.1,"Little Pine Creek near Etna, PA",Ref,EastHghlnds,14.8878,05,40.520346,-79.938108,PA,yes,yes,47,47,20,517,1,517,14.048,21.081,156,199,85,8e,APPALACHIAN HIGHLANDS,APPALACHIAN PLATEAUS,KANAWHA,8,"c(1342931.9787, 2059030.1236)"
03050000,1.89541794103865,0.489376876663823,1.85423248063333,0.427851653807585,1.69845484302362,0.0331371433861193,6.67763647023314,12,1.6,110.8,12.1092896174863,0,164.55,"TYGART VALLEY RIVER NEAR DAILEY, WV",Ref,EastHghlnds,487.287,05,38.809275,-79.881734,WV,yes,yes,81,47,20,519,1,519,2.999,11.795,162,204,84,8d,APPALACHIAN HIGHLANDS,APPALACHIAN PLATEAUS,ALLEGHENY MOUNTAIN,8,"c(1379964.7812, 1870839.9017)"
03066000,2.43037416944335,0.581601872844514,1.83476587780156,0.479958959044391,1.27578540961145,0.142759917824563,8.44589636914395,6.21119757890186,1.78787878787879,78.7979896238651,10.6928571428571,0,161.947368421053,"BLACKWATER R AT DAVIS, WV",Ref,EastHghlnds,222.7851,05,39.127052,-79.468385,WV,yes,yes,88,60,20,539,1,539,2.999,11.795,162,204,84,8d,APPALACHIAN HIGHLANDS,APPALACHIAN PLATEAUS,ALLEGHENY MOUNTAIN,8,"c(1408835.8338, 1911998.0988)"
03069500,2.44818565337301,0.601000307419244,1.79723602182952,0.474430152851135,1.57728921591444,0.134394649888778,8.24550704905856,6.45,1.53571428571429,80.2,10.5526315789474,0,165.75,"CHEAT RIVER NEAR PARSONS, WV",Ref,EastHghlnds,1856.853,05,39.122884,-79.681174,WV,yes,yes,96,60,20,543,1,543,2.999,11.795,162,204,84,8d,APPALACHIAN HIGHLANDS,APPALACHIAN PLATEAUS,ALLEGHENY MOUNTAIN,8,"c(1390961.4224, 1908403.2961)"
03070500,2.03204141467222,0.549168889224421,2.00272278668499,0.463490799150602,1.55128482652518,0.0709316811303723,7.18774368787772,9.7,1.46969696969697,105.55,12.4176470588235,0,156.4,"BIG SANDY CREEK AT ROCKVILLE, WV",Ref,EastHghlnds,517.3794,05,39.615638,-79.704774,WV,yes,yes,96,60,20,546,1,546,2.999,11.795,162,204,84,8d,APPALACHIAN HIGHLANDS,APPALACHIAN PLATEAUS,ALLEGHENY MOUNTAIN,8,"c(1379546.6654, 1962472.6597)"
03076600,1.77924550537738,0.486972677470955,1.79887950861261,0.497185539543152,1.48553266596088,0.104085082079078,6.37569137458557,9.95,1.95098039215686,96,11.7791411042945,0,162.45,"BEAR CREEK AT FRIENDSVILLE, MD",Ref,EastHghlnds,127.3991,05,39.656139,-79.394111,MD,yes,yes,45,45,20,557,1,557,2.999,11.795,162,204,84,8d,APPALACHIAN HIGHLANDS,APPALACHIAN PLATEAUS,ALLEGHENY MOUNTAIN,8,"c(1404792.5304, 1971494.5684)"
03078000,1.90259296426963,0.542170227147581,1.95463235038326,0.499639236174689,1.85224276621908,0.0787849444937687,6.57551267505685,8.55,1.56880733944954,100.3,12.1575757575758,0,160.15,"CASSELMAN RIVER AT GRANTSVILLE, MD",Ref,EastHghlnds,161.4825,05,39.702194,-79.136389,MD,yes,yes,62,60,20,559,1,559,2.999,11.795,162,204,84,8d,APPALACHIAN HIGHLANDS,APPALACHIAN PLATEAUS,ALLEGHENY MOUNTAIN,8,"c(1425456.2348, 1980413.5393)"
03140000,0.948224382474892,0.325505925457804,1.84492008277325,0.439380288021326,2.84806708970229,0.0219791861376951,3.33861055256126,15.9,1.82758620689655,120.95,11.147465437788,0,166.6,Mill Creek near Coshocton OH,Ref,EastHghlnds,70.3458,05,40.362846,-81.862356,OH,yes,yes,72,60,20,644,1,644,14.048,21.081,156,199,85,8e,APPALACHIAN HIGHLANDS,APPALACHIAN PLATEAUS,KANAWHA,8,"c(1185931.3739, 2016005.1383)"
03144000,1.10331015564865,0.368430419067962,1.68264149039823,0.425829417070649,2.25662661364107,0.0552046434426685,4.00435633167063,17.35,1.93854748603352,118.6,14.5521472392638,0,174.9,Wakatomika Creek near Frazeysburg OH,Ref,EastHghlnds,363.4146,05,40.132568,-82.14792,OH,yes,yes,73,60,20,650,1,650,14.048,21.081,156,199,85,8e,APPALACHIAN HIGHLANDS,APPALACHIAN PLATEAUS,KANAWHA,8,"c(1165895.7051, 1986952.3817)"
03159540,1.0988234059004,0.349307359741334,1.54248156226899,0.343456868395671,1.71637242605708,0.0103758972868478,4.61910533334497,27.15,2.07251908396947,151.55,15.0049504950495,0.00342231348391513,162.2,Shade River near Chester OH,Ref,EastHghlnds,400.851,05,39.063689,-81.881802,OH,yes,yes,43,43,20,673,1,673,14.048,21.081,156,199,85,8e,APPALACHIAN HIGHLANDS,APPALACHIAN PLATEAUS,KANAWHA,8,"c(1205860.3008, 1871785.3471)"
03161000,1.95007058212224,0.481832125389795,1.20279628358739,0.726972537146201,1.35078856586496,0.63498058148029,4.19457975357417,1.35,1.42105263157895,0.85,3.4,0,175.5,"SOUTH FORK NEW RIVER NEAR JEFFERSON, NC",Ref,EastHghlnds,527.8624,05,36.393333,-81.406944,NC,yes,yes,82,59,20,674,1,674,3.91,12.376,299,304,52,5b,APPALACHIAN HIGHLANDS,BLUE RIDGE,SOUTHERN,5,"c(1291877.6829, 1582174.2665)"
03164000,1.54547920114787,0.413173323812616,1.38094138228593,0.690426959144395,2.05607230148698,0.445940705451332,3.73688699662859,1.65,1.375,2.75,6.875,0,174.5,"NEW RIVER NEAR GALAX, VA",Ref,EastHghlnds,2952.736,05,36.64735,-80.978969,VA,yes,yes,80,60,20,675,1,675,3.91,12.376,299,304,52,5b,APPALACHIAN HIGHLANDS,BLUE RIDGE,SOUTHERN,5,"c(1324974.5715, 1616177.2748)"
03165000,1.67893377847116,0.45728802832076,1.08230822964954,0.69982709823084,1.72993075652786,0.527692764726212,3.69384935308348,2.9,1.18367346938776,0.7,7,0,172.1,"CHESTNUT CREEK AT GALAX, VA",Ref,EastHghlnds,101.9961,05,36.645961,-80.919244,VA,yes,yes,65,60,20,676,1,676,3.91,12.376,299,304,52,5b,APPALACHIAN HIGHLANDS,BLUE RIDGE,SOUTHERN,5,"c(1330223.1252, 1616858.0238)"
03170000,1.07424558090184,0.323360883944825,1.4417128865934,0.702218972399446,1.14672699028647,0.277096294044337,2.46800432562156,1.9,1.1875,6.85,5.95652173913043,0,175.95,"LITTLE RIVER AT GRAYSONTOWN, VA",Ref,EastHghlnds,794.6403,05,37.037626,-80.556724,VA,yes,yes,81,60,20,681,1,681,7.235,22.16,161,191,62,6b,APPALACHIAN HIGHLANDS,VALLEY AND RIDGE,MIDDLE,6,"c(1354821.514, 1665297.0543)"
03173000,1.01584744367196,0.336056023002685,1.84031246457304,0.540795022620318,2.91124074213465,0.12971292268078,3.32191631255656,9.7,1.97959183673469,86.35,16.2924528301887,0,170.9,"WALKER CREEK AT BANE, VA",Ref,EastHghlnds,773.3151,05,37.268178,-80.709512,VA,yes,yes,71,60,20,684,1,684,7.235,22.16,161,191,62,6b,APPALACHIAN HIGHLANDS,VALLEY AND RIDGE,MIDDLE,6,"c(1337395.1856, 1688630.6558)"
03180500,2.018277105845,0.533537321998708,1.94814091935891,0.473178696633075,1.67443032642371,0.0703356790466707,6.99102616330817,8.5,1.82795698924731,98.25,11.1647727272727,0,163.55,"GREENBRIER RIVER AT DURBIN, WV",Ref,EastHghlnds,345.0564,05,38.543727,-79.833115,WV,yes,yes,66,60,20,691,1,691,2.999,11.795,162,204,84,8d,APPALACHIAN HIGHLANDS,APPALACHIAN PLATEAUS,ALLEGHENY MOUNTAIN,8,"c(1389126.2073, 1842212.3177)"
03182500,1.67221822837143,0.47073825513177,1.90987945568342,0.451749431596677,1.35859551878387,0.0684697728447988,6.00454814214853,12.6,1.8,110.85,14.5855263157895,0,161.8,"GREENBRIER RIVER AT BUCKEYE, WV",Ref,EastHghlnds,1364.974,05,38.185953,-80.130623,WV,yes,yes,80,60,20,692,1,692,7.235,22.16,161,191,62,6b,APPALACHIAN HIGHLANDS,VALLEY AND RIDGE,MIDDLE,6,"c(1370468.8059, 1798359.5167)"
03186500,2.53276933069042,0.611346628739278,1.89119388019309,0.459918185114449,1.13298107928404,0.0706485051978423,8.68264192032303,7.6,1.39449541284404,92.55,11.7898089171975,0,159.35,"WILLIAMS RIVER AT DYER, WV",Ref,EastHghlnds,329.6805,05,38.378999,-80.483974,WV,yes,yes,80,60,20,699,1,699,14.048,21.081,156,199,85,8e,APPALACHIAN HIGHLANDS,APPALACHIAN PLATEAUS,KANAWHA,8,"c(1336711.2885, 1814670.0522)"
03187500,2.65026336417703,0.641023757243345,1.90171345232282,0.470847425207179,1.16144694145027,0.0766729716313929,8.89406470924158,5.9,1.34090909090909,87.6,11.1592356687898,0,160.3,"CRANBERRY RIVER NEAR RICHWOOD, WV",Ref,EastHghlnds,207.415,05,38.29539,-80.526475,WV,yes,yes,50,45,20,701,1,701,14.048,21.081,156,199,85,8e,APPALACHIAN HIGHLANDS,APPALACHIAN PLATEAUS,KANAWHA,8,"c(1334601.3945, 1804825.5918)"
03213700,1.13243601644564,0.325842167274846,1.84926478870791,0.560447907314011,1.87542393882473,0.12005578827753,3.56938973887312,7.25,1.90789473684211,75.35,13.8256880733945,0,176.4,"TUG FORK AT WILLIAMSON, WV",Ref,EastHghlnds,2425.06,05,37.673157,-82.280141,KY,yes,yes,42,42,20,754,1,754,14.048,21.081,156,199,85,8e,APPALACHIAN HIGHLANDS,APPALACHIAN PLATEAUS,KANAWHA,8,"c(1194500.4093, 1712566.9947)"
03237280,1.12941139251563,0.320095901407147,2.03804017671925,0.356306323013351,2.54742526292061,0,4.21746558382914,37.95,2.65384615384615,174,19.7727272727273,0.0704996577686516,166.2,Upper Twin Creek at McGaw OH,Ref,EastHghlnds,32.9542,05,38.643687,-83.215736,OH,yes,yes,46,46,20,769,1,769,14.048,21.081,156,199,85,8e,APPALACHIAN HIGHLANDS,APPALACHIAN PLATEAUS,KANAWHA,8,"c(1098964.6892, 1809003.2592)"
03280700,1.33001383415596,0.333288888822505,1.69109649530582,0.411989325532183,2.07170691110108,0.0417504359308669,4.59254795239536,17.45,2.20886075949367,130.9,10.6422764227642,0,165.65,"CUTSHIN CREEK AT WOOTON, KY",Ref,EastHghlnds,158.2227,05,37.165093,-83.307956,KY,yes,yes,52,52,20,781,1,781,14.048,21.081,156,199,85,8e,APPALACHIAN HIGHLANDS,APPALACHIAN PLATEAUS,KANAWHA,8,"c(1113151.0836, 1643698.8061)"
03281100,NA,NA,NA,0.385867771188684,NA,NA,NA,NA,NA,NA,NA,NA,NA,"GOOSE CREEK AT MANCHESTER, KY",Ref,EastHghlnds,422.7237,05,37.152034,-83.760197,KY,yes,yes,45,45,20,785,1,785,4.107,15.162,278,303,86,8f,APPALACHIAN HIGHLANDS,APPALACHIAN PLATEAUS,CUMBERLAND PLATEAU,8,"c(1073899.0544, 1637044.1752)"
03281500,1.42085615149716,0.373787381934962,1.70494880455343,0.409674322211301,1.94981965543227,0.0173023262134752,5.20400734574524,18.85,2.31288343558282,126.45,14.7894736842105,0.00150581793292266,158.75,"SOUTH FORK KENTUCKY RIVER AT BOONEVILLE, KY",Ref,EastHghlnds,1838.22,05,37.47981,-83.675192,KY,yes,yes,76,60,20,786,1,786,4.107,15.162,278,303,86,8f,APPALACHIAN HIGHLANDS,APPALACHIAN PLATEAUS,CUMBERLAND PLATEAU,8,"c(1076565.1823, 1674431.2032)"
03439000,3.16323217196459,0.568857600939258,1.18060466137091,0.720916167067827,1.37562779769927,0.876368919880916,7.19991840739664,1.35,1.22727272727273,2.15,6.14285714285714,0,168.95,"FRENCH BROAD RIVER AT ROSMAN, NC",Ref,EastHghlnds,178.6674,06,35.143333,-82.824722,NC,yes,yes,75,60,20,808,1,808,3.91,12.376,299,304,52,5b,APPALACHIAN HIGHLANDS,BLUE RIDGE,SOUTHERN,5,"c(1186555.735, 1425222.1244)"
03450000,1.89841335643901,0.463637564943682,1.80287082874467,0.592268284898982,1.65387463621356,0.173762467723636,5.03911156398546,2.35,1.62068965517241,57.55,10.3693693693694,0,173.05,"BEETREE CREEK NEAR SWANNANOA, NC",Ref,EastHghlnds,14.0805,06,35.653056,-82.405278,NC,yes,yes,75,52,20,819,1,819,3.91,12.376,299,304,52,5b,APPALACHIAN HIGHLANDS,BLUE RIDGE,SOUTHERN,5,"c(1215942.9652, 1487011.2326)"
03455500,3.30074139682846,0.569036399006352,1.32396452930788,0.626332290363918,1.53017033317378,0.603678681561047,8.64602022813542,3.55,1.24561403508772,21.55,7.69642857142857,0,164.2,"W F PIGEON R ABOVE LAKE LOGAN NR HAZELWOOD, NC",Ref,EastHghlnds,72.9522,06,35.396111,-82.9375,NC,yes,yes,55,55,20,826,1,826,3.91,12.376,299,304,52,5b,APPALACHIAN HIGHLANDS,BLUE RIDGE,SOUTHERN,5,"c(1172587.1529, 1451842.7396)"
03456500,2.59869262288597,0.542821012854399,1.3897914886895,0.636631042769778,1.99636522846521,0.44006455139902,6.74765645478497,3.3,1.43478260869565,26.65,8.73770491803279,0,167.3,"EAST FORK PIGEON RIVER NEAR CANTON, NC",Ref,EastHghlnds,133.4268,06,35.461667,-82.869722,NC,yes,yes,55,55,20,830,1,830,3.91,12.376,299,304,52,5b,APPALACHIAN HIGHLANDS,BLUE RIDGE,SOUTHERN,5,"c(1177622.1346, 1459948.9615)"
03460000,2.18216888049862,0.488063027369518,1.28388303878243,0.687017936220612,1.51765035909835,0.520056209493132,5.25834611820833,1.8,1.38461538461538,12.2,7.87096774193548,0,169.55,"CATALOOCHEE CREEK NEAR CATALOOCHEE, NC",Ref,EastHghlnds,127.019,06,35.6675,-83.073611,NC,yes,yes,65,50,20,836,1,836,3.91,12.376,299,304,52,5b,APPALACHIAN HIGHLANDS,BLUE RIDGE,SOUTHERN,5,"c(1156325.1655, 1480270.951)"
03463300,3.06004959603113,0.670284579863615,1.29607303443405,0.589691621119328,1.99552002126813,0.458078516909101,7.97929149930233,3.9,1.27868852459016,34.75,9.92857142857143,0,177.15,"SOUTH TOE RIVER NEAR CELO, NC",Ref,EastHghlnds,112.1589,06,35.831507,-82.184287,NC,yes,yes,52,52,20,840,1,840,3.91,12.376,299,304,52,5b,APPALACHIAN HIGHLANDS,BLUE RIDGE,SOUTHERN,5,"c(1232676.2064, 1509630.4437)"
03471500,1.32033825690415,0.386908002686267,1.64350671710493,0.630658434780838,1.45160464352651,0.283968699776052,3.55578197980447,3.6,1.6,5.6,6.58823529411765,0,174.8,"S F HOLSTON RIVER AT RIVERSIDE NR CHILHOWIE, VA",Ref,EastHghlnds,198.1611,06,36.760393,-81.631229,VA,yes,yes,78,60,20,852,1,852,4.41,16.55,298,305,61,6a,APPALACHIAN HIGHLANDS,VALLEY AND RIDGE,TENNESSEE,6,"c(1265981.6304, 1619799.2605)"
03473000,1.45365378683466,0.415810557583452,1.64830252142914,0.627684501517193,1.59411153861136,0.280567015072937,3.92793821102112,2.95,1.59459459459459,22.05,7.11290322580645,0,171.95,"S F HOLSTON RIVER NEAR DAMASCUS, VA",Ref,EastHghlnds,784.8126,06,36.651781,-81.84401,VA,yes,yes,78,60,20,853,1,853,4.41,16.55,298,305,61,6a,APPALACHIAN HIGHLANDS,VALLEY AND RIDGE,TENNESSEE,6,"c(1249180.0176, 1604952.1834)"
03479000,1.81548609047936,0.456928974815457,1.33464942529816,0.592287367413077,1.66299499085591,0.332302281229039,4.63146304462973,4,1.45454545454545,23.25,8.01724137931035,0,168.2,"WATAUGA RIVER NEAR SUGAR GROVE, NC",Ref,EastHghlnds,235.6011,06,36.239167,-81.822222,NC,yes,yes,69,60,20,858,1,858,3.91,12.376,299,304,52,5b,APPALACHIAN HIGHLANDS,BLUE RIDGE,SOUTHERN,5,"c(1257958.2245, 1559532.7368)"
03488000,1.23117574448451,0.376021978878748,1.77713280495175,0.530133411505307,1.84159141105423,0.135401354970619,3.89617398927956,7.85,1.74444444444444,78.9,15.0285714285714,0,166.4,"N F HOLSTON RIVER NEAR SALTVILLE, VA",Ref,EastHghlnds,578.206,06,36.896781,-81.746229,VA,yes,yes,90,60,20,864,1,864,4.41,16.55,298,305,61,6a,APPALACHIAN HIGHLANDS,VALLEY AND RIDGE,TENNESSEE,6,"c(1253642.428, 1633382.7211)"
03498500,1.80427642445796,0.416642224331698,1.52741893362029,0.573668589347479,1.55959108617368,0.249306595863662,4.98613191727323,4.95,1.57142857142857,44.35,9.74725274725275,0,163.45,"LITTLE RIVER NEAR MARYVILLE, TN",Ref,EastHghlnds,696.7582,06,35.785621,-83.884604,TN,yes,yes,58,58,20,874,1,874,4.41,16.55,298,305,61,6a,APPALACHIAN HIGHLANDS,VALLEY AND RIDGE,TENNESSEE,6,"c(1082503.473, 1483828.2624)"
03500000,2.50208944130495,0.481630285306863,1.32917229768661,0.731153521643894,1.89091208174133,0.596163947522552,5.82614766897039,0.7,1.27272727272727,7.9,6.8695652173913,0,168.8,"LITTLE TENNESSEE RIVER NEAR PRENTISS, NC",Ref,EastHghlnds,361.1439,06,35.15,-83.379722,NC,yes,yes,65,60,20,877,1,877,3.91,12.376,299,304,52,5b,APPALACHIAN HIGHLANDS,BLUE RIDGE,SOUTHERN,5,"c(1136774.7626, 1419177.0603)"
03500240,2.31388434615595,0.459278556100656,1.38390851923096,0.705216066136577,1.8245943579465,0.51997697732080606,5.68284515858996,1.45,1.31818181818182,11.1,10.5714285714286,0,166.85,"CARTOOGECHAYE CREEK NEAR FRANKLIN, NC",Ref,EastHghlnds,145.8639,06,35.158889,-83.394167,NC,yes,yes,48,48,20,878,1,878,3.91,12.376,299,304,52,5b,APPALACHIAN HIGHLANDS,BLUE RIDGE,SOUTHERN,5,"c(1135349.7638, 1419990.3275)"
03504000,3.68226240268835,0.657177368049606,1.39195772918405,0.720317018430557,1.87337427177933,0.854810070181338,8.3844136670978,0.6,1.09090909090909,9.8,8.16666666666667,0,165.6,"NANTAHALA RIVER NEAR RAINBOW SPRINGS, NC",Ref,EastHghlnds,134.5167,06,35.1275,-83.618611,NC,yes,yes,69,60,20,883,1,883,3.91,12.376,299,304,52,5b,APPALACHIAN HIGHLANDS,BLUE RIDGE,SOUTHERN,5,"c(1115706.9577, 1413849.9605)"
03574500,1.96550045484383,0.458075297069284,1.6825209534633,0.388050713639502,2.22540057138982,0.0360763167198152,8.00894231179891,24.75,2.79661016949153,146.1,18.8516129032258,0,140,PAINT ROCK RIVER NEAR WOODVILLE AL,Ref,EastHghlnds,813.8025,06,34.624255,-86.306374,AL,yes,yes,73,60,20,949,1,949,4.107,15.162,278,303,86,8f,APPALACHIAN HIGHLANDS,APPALACHIAN PLATEAUS,CUMBERLAND PLATEAU,8,"c(880198.805100001, 1329698.7568)"
04213000,1.63938528174227,0.50304305092457,1.62895788653144,0.37344347434575,1.26445831012725,0.0440630781320012,6.98560994775629,23.05,2.05803571428571,128.85,14.9825581395349,0,145.3,Conneaut Creek at Conneaut OH,Ref,NorthEast,455.2974,04,41.926999,-80.603966,OH,yes,yes,72,59,20,966,1,966,7.84,23.26,148,165,83,8c,APPALACHIAN HIGHLANDS,APPALACHIAN PLATEAUS,SOUTHERN NEW YORK,8,"c(1262357.9631, 2205225.5525)"
04221000,1.3108878505913,0.412810161427718,1.80767294061773,0.500682984690674,1.44182654270383,0.0879734974028042,4.39867487014021,9.3,1.91752577319588,89.5,13.6641221374046,0,161.6,GENESEE RIVER AT WELLSVILLE NY,Ref,NorthEast,750.879,04,42.12229,-77.957225,NY,yes,yes,40,40,20,969,1,969,14.048,21.081,156,199,85,8e,APPALACHIAN HIGHLANDS,APPALACHIAN PLATEAUS,KANAWHA,8,"c(1472828.8002, 2264826.4566)"
04224775,1.12964683189208,0.387613118562088,1.69849739132424,0.506242202340622,0.0228733072613498,0.105528620839752,3.6935017293913,11.25,1.90677966101695,79.15,10.9930555555556,0,164.4,CANASERAGA CREEK ABOVE DANSVILLE NY,Ref,NorthEast,231.8445,04,42.535623,-77.704161,NY,yes,yes,35,35,20,972,1,972,7.84,23.26,148,165,83,8c,APPALACHIAN HIGHLANDS,APPALACHIAN PLATEAUS,SOUTHERN NEW YORK,8,"c(1484389.3112, 2314139.2404)"
04233000,1.17188661561043,0.408263663878544,1.65217036070266,0.553733826318111,1.13611697254504,0.125124102982365,3.46087944419308,6.05,1.77941176470588,63.75,8.61486486486486,0,167.05,CAYUGA INLET NEAR ITHACA NY,Ref,NorthEast,91.8999,04,42.393129,-76.544943,NY,yes,yes,72,60,20,978,1,978,7.84,23.26,148,165,83,8c,APPALACHIAN HIGHLANDS,APPALACHIAN PLATEAUS,SOUTHERN NEW YORK,8,"c(1580400.6724, 2317214.1816)"
